[
    {
        "Name": "Coop Supermarkt Liestal Stabhof",
        "Distance": 35,
        "FormatId": "retail",
        "Latitude": 47.483985,
        "Longitude": 7.735262,
        "LogoUrl": "https://libs.coop.ch/logos-vst/coop-retail-de.svg",
        "ZipCode": "4410",
        "CityName": "Liestal",
        "StreetName": "Rathausstrasse",
        "HouseNumber": "45",
        "Open": false,
        "OpeningTime": null,
        "ClosingTime": null
    },
    {
        "Name": "Coop Supermarkt Liestal B端cheli Center",
        "Distance": 134,
        "FormatId": "retail",
        "Latitude": 47.483442,
        "Longitude": 7.736386,
        "LogoUrl": "https://libs.coop.ch/logos-vst/coop-retail-de.svg",
        "ZipCode": "4410",
        "CityName": "Liestal",
        "StreetName": "B端chelistrasse",
        "HouseNumber": "10",
        "Open": false,
        "OpeningTime": null,
        "ClosingTime": null
    },
    {
        "Name": "Coop Pronto Shop mit Tankstelle Lausen",
        "Distance": 2001,
        "FormatId": "pronto",
        "Latitude": 47.472617,
        "Longitude": 7.755387,
        "LogoUrl": "https://libs.coop.ch/logos-vst/coop-pronto-de.svg",
        "ZipCode": "4415",
        "CityName": "Lausen",
        "StreetName": "Hauptstrasse",
        "HouseNumber": "36",
        "Open": true,
        "OpeningTime": "06:00",
        "ClosingTime": "23:00"
    },
    {
        "Name": "Coop Supermarkt Lausen",
        "Distance": 2179,
        "FormatId": "retail",
        "Latitude": 47.472941,
        "Longitude": 7.758692,
        "LogoUrl": "https://libs.coop.ch/logos-vst/coop-retail-de.svg",
        "ZipCode": "4415",
        "CityName": "Lausen",
        "StreetName": "Br端hlstrasse",
        "HouseNumber": "52",
        "Open": false,
        "OpeningTime": null,
        "ClosingTime": null
    },
    {
        "Name": "Coop Supermarkt Frenkendorf",
        "Distance": 2264,
        "FormatId": "retail",
        "Latitude": 47.502223,
        "Longitude": 7.721467,
        "LogoUrl": "https://libs.coop.ch/logos-vst/coop-retail-de.svg",
        "ZipCode": "4402",
        "CityName": "Frenkendorf",
        "StreetName": "Bahnhofstrasse",
        "HouseNumber": "22",
        "Open": false,
        "OpeningTime": null,
        "ClosingTime": null
    },
    {
        "Name": "Coop Bistro Frenkendorf",
        "Distance": 2264,
        "FormatId": "bistro",
        "Latitude": 47.502223,
        "Longitude": 7.721467,
        "LogoUrl": "https://libs.coop.ch/logos-vst/coop-bistro-de.svg",
        "ZipCode": "4402",
        "CityName": "Frenkendorf",
        "StreetName": "Bahnhofstrasse",
        "HouseNumber": "22",
        "Open": false,
        "OpeningTime": null,
        "ClosingTime": null
    },
    {
        "Name": "Coop Supermarkt Bubendorf",
        "Distance": 3358,
        "FormatId": "retail",
        "Latitude": 47.453797,
        "Longitude": 7.736791,
        "LogoUrl": "https://libs.coop.ch/logos-vst/coop-retail-de.svg",
        "ZipCode": "4416",
        "CityName": "Bubendorf",
        "StreetName": "Gewerbestrasse",
        "HouseNumber": "4",
        "Open": false,
        "OpeningTime": null,
        "ClosingTime": null
    },
    {
        "Name": "Coop Pronto Shop mit Tankstelle Frenkendorf",
        "Distance": 3385,
        "FormatId": "pronto",
        "Latitude": 47.512438,
        "Longitude": 7.718853,
        "LogoUrl": "https://libs.coop.ch/logos-vst/coop-pronto-de.svg",
        "ZipCode": "4402",
        "CityName": "Frenkendorf",
        "StreetName": "Rheinstrasse",
        "HouseNumber": "113D",
        "Open": true,
        "OpeningTime": "06:00",
        "ClosingTime": "23:00"
    },
    {
        "Name": "Coop Supermarkt Pratteln Bahnhof",
        "Distance": 5193,
        "FormatId": "retail",
        "Latitude": 47.520209,
        "Longitude": 7.691292,
        "LogoUrl": "https://libs.coop.ch/logos-vst/coop-retail-de.svg",
        "ZipCode": "4133",
        "CityName": "Pratteln",
        "StreetName": "Bahnhofstrasse",
        "HouseNumber": "18",
        "Open": false,
        "OpeningTime": null,
        "ClosingTime": null
    },
    {
        "Name": "Coop Pronto Shop Pratteln Bahnhof",
        "Distance": 5429,
        "FormatId": "pronto",
        "Latitude": 47.522638,
        "Longitude": 7.690786,
        "LogoUrl": "https://libs.coop.ch/logos-vst/coop-pronto-de.svg",
        "ZipCode": "4133",
        "CityName": "Pratteln",
        "StreetName": "G端terstrasse",
        "HouseNumber": "10",
        "Open": true,
        "OpeningTime": "05:00",
        "ClosingTime": "23:00"
    }
]