[
    {
        "Name": "Coop Restaurant Basel Am Marktplatz",
        "Distance": 73,
        "FormatId": "restaurant",
        "Latitude": 47.557443,
        "Longitude": 7.587798,
        "LogoUrl": "https://libs.coop.ch/logos-vst/coop-restaurant-de.svg",
        "ZipCode": "4001",
        "CityName": "Basel",
        "StreetName": "Gerbergasse",
        "HouseNumber": "4",
        "Open": false,
        "OpeningTime": "08:30",
        "ClosingTime": "17:45"
    },
    {
        "Name": "Coop City Basel Am Marktplatz",
        "Distance": 77,
        "FormatId": "city",
        "Latitude": 47.557416,
        "Longitude": 7.587785,
        "LogoUrl": "https://libs.coop.ch/logos-vst/coop-city-de.svg",
        "ZipCode": "4001",
        "CityName": "Basel",
        "StreetName": "Gerbergasse",
        "HouseNumber": "4",
        "Open": false,
        "OpeningTime": "08:30",
        "ClosingTime": "18:00"
    },
    {
        "Name": "Coop Supermarkt City Basel Marktplatz Food",
        "Distance": 79,
        "FormatId": "retail",
        "Latitude": 47.557515,
        "Longitude": 7.587254,
        "LogoUrl": "https://libs.coop.ch/logos-vst/coop-retail-de.svg",
        "ZipCode": "4001",
        "CityName": "Basel",
        "StreetName": "Hutgasse",
        "HouseNumber": "19",
        "Open": false,
        "OpeningTime": "08:30",
        "ClosingTime": "18:00"
    },
    {
        "Name": "Coop Supermarkt Basel Fischmärt",
        "Distance": 171,
        "FormatId": "retail",
        "Latitude": 47.559584,
        "Longitude": 7.587193,
        "LogoUrl": "https://libs.coop.ch/logos-vst/coop-retail-de.svg",
        "ZipCode": "4051",
        "CityName": "Basel",
        "StreetName": "Marktgasse",
        "HouseNumber": "8",
        "Open": false,
        "OpeningTime": "06:30",
        "ClosingTime": "18:00"
    },
    {
        "Name": "Coop Supermarkt City Basel Pfauen Food",
        "Distance": 352,
        "FormatId": "retail",
        "Latitude": 47.555649,
        "Longitude": 7.590796,
        "LogoUrl": "https://libs.coop.ch/logos-vst/coop-retail-de.svg",
        "ZipCode": "4051",
        "CityName": "Basel",
        "StreetName": "Freie Strasse",
        "HouseNumber": "75",
        "Open": false,
        "OpeningTime": "08:30",
        "ClosingTime": "18:00"
    },
    {
        "Name": "Coop City Basel Pfauen",
        "Distance": 352,
        "FormatId": "city",
        "Latitude": 47.555649,
        "Longitude": 7.590796,
        "LogoUrl": "https://libs.coop.ch/logos-vst/coop-city-de.svg",
        "ZipCode": "4051",
        "CityName": "Basel",
        "StreetName": "Freie Strasse",
        "HouseNumber": "75",
        "Open": false,
        "OpeningTime": "08:30",
        "ClosingTime": "18:00"
    },
    {
        "Name": "Coop Restaurant Basel Pfauen",
        "Distance": 352,
        "FormatId": "restaurant",
        "Latitude": 47.555649,
        "Longitude": 7.590796,
        "LogoUrl": "https://libs.coop.ch/logos-vst/coop-restaurant-de.svg",
        "ZipCode": "4051",
        "CityName": "Basel",
        "StreetName": "Freie Strasse",
        "HouseNumber": "75",
        "Open": false,
        "OpeningTime": "08:30",
        "ClosingTime": "18:00"
    },
    {
        "Name": "Coop Take it Basel City Pfauen",
        "Distance": 352,
        "FormatId": "takeit",
        "Latitude": 47.555649,
        "Longitude": 7.590796,
        "LogoUrl": "https://libs.coop.ch/logos-vst/coop-takeit-de.svg",
        "ZipCode": "4002",
        "CityName": "Basel",
        "StreetName": "Freie Strasse",
        "HouseNumber": "75",
        "Open": false,
        "OpeningTime": "08:30",
        "ClosingTime": "18:00"
    },
    {
        "Name": "Coop Pronto Shop Basel Barfüsserplatz",
        "Distance": 356,
        "FormatId": "pronto",
        "Latitude": 47.555245,
        "Longitude": 7.589984,
        "LogoUrl": "https://libs.coop.ch/logos-vst/coop-pronto-de.svg",
        "ZipCode": "4051",
        "CityName": "Basel",
        "StreetName": "Streitgasse",
        "HouseNumber": "20",
        "Open": false,
        "OpeningTime": "06:30",
        "ClosingTime": "22:00"
    },
    {
        "Name": "Coop Supermarkt Basel Greifengasse",
        "Distance": 415,
        "FormatId": "retail",
        "Latitude": 47.561063,
        "Longitude": 7.59121,
        "LogoUrl": "https://libs.coop.ch/logos-vst/coop-retail-de.svg",
        "ZipCode": "4058",
        "CityName": "Basel",
        "StreetName": "Greifengasse",
        "HouseNumber": "3",
        "Open": false,
        "OpeningTime": "07:30",
        "ClosingTime": "18:00"
    }
]