[
    {
        "Name": "Coop Supermarkt Sissach",
        "Distance": 3017,
        "FormatId": "retail",
        "Latitude": 47.463476,
        "Longitude": 7.813662,
        "LogoUrl": "https://libs.coop.ch/logos-vst/coop-retail-de.svg",
        "ZipCode": "4450",
        "CityName": "Sissach",
        "StreetName": "Hauptstrasse",
        "HouseNumber": "48",
        "Open": false,
        "OpeningTime": null,
        "ClosingTime": null
    },
    {
        "Name": "Coop Pronto Shop mit Tankstelle Gelterkinden",
        "Distance": 4146,
        "FormatId": "pronto",
        "Latitude": 47.465082,
        "Longitude": 7.846778,
        "LogoUrl": "https://libs.coop.ch/logos-vst/coop-pronto-de.svg",
        "ZipCode": "4460",
        "CityName": "Gelterkinden",
        "StreetName": "Sissacherstrasse",
        "HouseNumber": "24",
        "Open": true,
        "OpeningTime": "06:00",
        "ClosingTime": "23:00"
    },
    {
        "Name": "Coop Supermarkt Gelterkinden",
        "Distance": 4380,
        "FormatId": "retail",
        "Latitude": 47.464929,
        "Longitude": 7.851711,
        "LogoUrl": "https://libs.coop.ch/logos-vst/coop-retail-de.svg",
        "ZipCode": "4460",
        "CityName": "Gelterkinden",
        "StreetName": "Allmend",
        "HouseNumber": "3",
        "Open": false,
        "OpeningTime": null,
        "ClosingTime": null
    },
    {
        "Name": "Coop Supermarkt Lausen",
        "Distance": 5701,
        "FormatId": "retail",
        "Latitude": 47.472941,
        "Longitude": 7.758692,
        "LogoUrl": "https://libs.coop.ch/logos-vst/coop-retail-de.svg",
        "ZipCode": "4415",
        "CityName": "Lausen",
        "StreetName": "Br端hlstrasse",
        "HouseNumber": "52",
        "Open": false,
        "OpeningTime": null,
        "ClosingTime": null
    },
    {
        "Name": "Popeyes Oerlikon",
        "Distance": 5802,
        "FormatId": "popeyes",
        "Latitude": 47.415663,
        "Longitude": 7.882283,
        "LogoUrl": "https://libs.coop.ch/logos-vst/coop-popeyes-de.svg",
        "ZipCode": "8050",
        "CityName": "Z端rich",
        "StreetName": "Hofwiesenstrasse",
        "HouseNumber": "370",
        "Open": false,
        "OpeningTime": "11:00",
        "ClosingTime": "23:00"
    },
    {
        "Name": "Coop Pronto Shop mit Tankstelle Lausen",
        "Distance": 5854,
        "FormatId": "pronto",
        "Latitude": 47.472617,
        "Longitude": 7.755387,
        "LogoUrl": "https://libs.coop.ch/logos-vst/coop-pronto-de.svg",
        "ZipCode": "4415",
        "CityName": "Lausen",
        "StreetName": "Hauptstrasse",
        "HouseNumber": "36",
        "Open": true,
        "OpeningTime": "06:00",
        "ClosingTime": "23:00"
    },
    {
        "Name": "Coop Supermarkt Bubendorf",
        "Distance": 5972,
        "FormatId": "retail",
        "Latitude": 47.453797,
        "Longitude": 7.736791,
        "LogoUrl": "https://libs.coop.ch/logos-vst/coop-retail-de.svg",
        "ZipCode": "4416",
        "CityName": "Bubendorf",
        "StreetName": "Gewerbestrasse",
        "HouseNumber": "4",
        "Open": false,
        "OpeningTime": null,
        "ClosingTime": null
    },
    {
        "Name": "Coop Supermarkt Oberdorf",
        "Distance": 6662,
        "FormatId": "retail",
        "Latitude": 47.394413,
        "Longitude": 7.748671,
        "LogoUrl": "https://libs.coop.ch/logos-vst/coop-retail-de.svg",
        "ZipCode": "4436",
        "CityName": "Oberdorf",
        "StreetName": "Uli Schadweg",
        "HouseNumber": "3",
        "Open": false,
        "OpeningTime": null,
        "ClosingTime": null
    },
    {
        "Name": "Coop Supermarkt Liestal B端cheli Center",
        "Distance": 7722,
        "FormatId": "retail",
        "Latitude": 47.483442,
        "Longitude": 7.736386,
        "LogoUrl": "https://libs.coop.ch/logos-vst/coop-retail-de.svg",
        "ZipCode": "4410",
        "CityName": "Liestal",
        "StreetName": "B端chelistrasse",
        "HouseNumber": "10",
        "Open": false,
        "OpeningTime": null,
        "ClosingTime": null
    },
    {
        "Name": "Coop Supermarkt Liestal Stabhof",
        "Distance": 7825,
        "FormatId": "retail",
        "Latitude": 47.483985,
        "Longitude": 7.735262,
        "LogoUrl": "https://libs.coop.ch/logos-vst/coop-retail-de.svg",
        "ZipCode": "4410",
        "CityName": "Liestal",
        "StreetName": "Rathausstrasse",
        "HouseNumber": "45",
        "Open": false,
        "OpeningTime": null,
        "ClosingTime": null
    }
]